$GPGSV,3,1,12,65,39,273,51,27,30,146,53,64,77,345,51,16,75,102,56*71
$GPGSV,3,2,12,73,36,067,39,72,14,010,52,07,23,279,42,54,32,222,41*7C
$GPGSV,3,3,12,09,57,273,56,56,12,343,38,23,60,210,56,55,44,290,50*72
$GPGGA,032005.00,5600.4370,N,09250.6217,E,1,12,1.5,00114.1,M,,,,*36
$GPRMC,032005.00,A,5600.4370,N,09250.6217,E,0000.0,103.5,070616,000.0,E*62

$GPGSV,3,1,12,65,39,273,51,27,30,146,53,64,77,345,51,16,75,102,56*71
$GPGSV,3,2,12,73,36,067,38,72,14,010,52,07,23,279,42,54,32,222,41*7D
$GPGSV,3,3,12,09,57,273,56,56,12,343,38,23,60,210,56,55,44,290,50*72
$GPGGA,032006.00,5600.4370,N,09250.6217,E,1,12,1.5,00114.0,M,,,,*34
$GPRMC,032006.00,A,5600.4370,N,09250.6217,E,0000.0,127.7,070616,000.0,E*65

$GPGSV,3,1,12,65,39,273,51,27,30,146,53,64,77,345,52,16,75,102,56*72
$GPGSV,3,2,12,73,36,067,37,72,14,010,52,07,23,279,42,54,32,222,40*73
$GPGSV,3,3,12,09,57,273,56,56,12,343,37,23,60,210,56,55,44,290,51*7C
$GPGGA,032007.00,5600.4370,N,09250.6217,E,1,12,1.5,00113.8,M,,,,*3A
$GPRMC,032007.00,A,5600.4370,N,09250.6217,E,0000.0,116.6,070616,000.0,E*67

$GPGSV,3,1,11,65,39,273,51,27,30,146,53,64,77,345,52,16,75,102,56*71
$GPGSV,3,2,11,72,14,010,52,07,23,279,43,54,32,222,39,09,57,273,56*75
$GPGSV,3,3,11,56,12,343,36,23,60,210,56,55,44,290,51*40
$GPGGA,032008.00,5600.4370,N,09250.6315,E,1,11,1.6,00115.0,M,,,,*38
$GPRMC,032008.00,A,5600.4370,N,09250.6315,E,0000.0,145.1,070616,000.0,E*6A

$GPGSV,3,1,11,65,39,273,51,27,30,146,53,64,77,345,52,16,75,102,56*71
$GPGSV,3,2,11,72,14,010,52,07,23,279,43,54,32,222,38,09,57,273,56*74
$GPGSV,3,3,11,56,12,343,36,23,60,210,56,55,44,290,51*40
$GPGGA,032009.00,5600.4370,N,09250.6315,E,1,11,1.6,00114.8,M,,,,*30
$GPRMC,032009.00,A,5600.4370,N,09250.6315,E,0000.0,131.1,070616,000.0,E*68

$GPGSV,3,1,11,65,39,273,51,27,30,146,53,64,77,345,51,16,75,102,56*72
$GPGSV,3,2,11,72,14,010,52,07,23,279,43,54,32,222,38,09,57,273,56*74
$GPGSV,3,3,11,56,12,343,37,23,60,210,56,55,44,290,51*41
$GPGGA,032010.00,5600.4370,N,09250.6315,E,1,11,1.6,00114.7,M,,,,*37
$GPRMC,032010.00,A,5600.4370,N,09250.6315,E,0000.0,096.3,070616,000.0,E*6E

$GPGSV,3,1,11,65,39,273,51,27,30,146,53,64,77,345,52,16,75,102,56*71
$GPGSV,3,2,11,72,14,010,52,07,23,279,43,54,32,222,38,09,57,273,56*74
$GPGSV,3,3,11,56,12,343,37,23,60,210,56,55,44,290,51*41
$GPGGA,032011.00,5600.4370,N,09250.6315,E,1,11,1.6,00114.6,M,,,,*37
$GPRMC,032011.00,A,5600.4370,N,09250.6315,E,0000.0,120.2,070616,000.0,E*62

$GPGSV,3,1,11,65,39,273,51,27,30,146,53,64,77,345,52,16,75,102,56*71
$GPGSV,3,2,11,72,14,010,52,07,23,279,43,54,32,222,37,09,57,273,56*7B
$GPGSV,3,3,11,56,12,343,38,23,60,210,56,55,44,290,51*4E
$GPGGA,032012.00,5600.4370,N,09250.6315,E,1,11,1.6,00114.5,M,,,,*37
$GPRMC,032012.00,A,5600.4370,N,09250.6315,E,0000.0,121.0,070616,000.0,E*62

$GPGSV,3,1,11,65,39,273,51,27,30,146,52,64,77,345,52,16,75,102,56*70
$GPGSV,3,2,11,72,14,010,52,07,23,279,42,54,32,222,37,09,57,273,56*7A
$GPGSV,3,3,11,56,12,343,37,23,60,210,56,55,44,290,51*41
$GPGGA,032013.00,5600.4370,N,09250.6314,E,1,11,1.6,00114.4,M,,,,*36
$GPRMC,032013.00,A,5600.4370,N,09250.6314,E,0000.0,072.8,070616,000.0,E*6D

$GPGSV,3,1,11,65,40,273,51,27,30,146,52,64,77,345,52,16,75,102,56*7E
$GPGSV,3,2,11,72,14,010,52,07,23,279,43,54,32,222,37,09,57,273,56*7B
$GPGSV,3,3,11,56,12,343,38,23,60,210,56,55,44,290,51*4E
$GPGGA,032014.00,5600.4370,N,09250.6314,E,1,11,1.6,00114.3,M,,,,*36
$GPRMC,032014.00,A,5600.4370,N,09250.6314,E,0000.0,136.7,070616,000.0,E*64

$GPGSV,3,1,11,65,40,273,51,27,30,145,53,64,77,345,52,16,75,102,56*7C
$GPGSV,3,2,11,72,14,010,52,07,23,279,43,54,32,222,37,09,57,273,56*7B
$GPGSV,3,3,11,56,12,343,37,23,60,210,56,55,44,290,51*41
$GPGGA,032015.00,5600.4371,N,09250.6315,E,1,11,1.6,00114.2,M,,,,*36
$GPRMC,032015.00,A,5600.4371,N,09250.6315,E,0000.0,153.1,070616,000.0,E*60

$GPGSV,3,1,11,65,40,273,51,27,30,145,53,64,77,345,51,16,75,102,56*7F
$GPGSV,3,2,11,72,14,010,51,07,23,279,43,54,32,222,37,09,57,273,56*78
$GPGSV,3,3,11,56,12,343,37,23,60,210,56,55,44,290,51*41
$GPGGA,032016.00,5600.4371,N,09250.6315,E,1,11,1.6,00114.1,M,,,,*36
$GPRMC,032016.00,A,5600.4371,N,09250.6315,E,0000.0,146.3,070616,000.0,E*65

$GPGSV,3,1,11,65,40,273,51,27,30,145,52,64,77,345,51,16,75,102,56*7E
$GPGSV,3,2,11,72,14,010,51,07,23,279,43,54,32,222,37,09,57,273,56*78
$GPGSV,3,3,11,56,12,343,39,23,60,210,56,55,44,290,50*4E
$GPGGA,032017.00,5600.4371,N,09250.6314,E,1,11,1.6,00113.9,M,,,,*39
$GPRMC,032017.00,A,5600.4371,N,09250.6314,E,0000.0,100.2,070616,000.0,E*66

$GPGSV,3,1,11,65,40,273,51,27,30,145,52,64,77,345,51,16,75,102,56*7E
$GPGSV,3,2,11,72,14,010,51,07,23,279,43,54,32,222,37,09,57,273,56*78
$GPGSV,3,3,11,56,12,343,39,23,60,210,56,55,44,290,50*4E
$GPGGA,032018.00,5600.4371,N,09250.6314,E,1,11,1.6,00113.9,M,,,,*36
$GPRMC,032018.00,A,5600.4371,N,09250.6314,E,0000.0,101.2,070616,000.0,E*68

$GPGSV,3,1,11,65,40,273,51,27,30,145,52,64,77,345,51,16,75,101,56*7D
$GPGSV,3,2,11,72,14,010,51,07,23,279,43,54,32,222,37,09,57,273,56*78
$GPGSV,3,3,11,56,12,343,39,23,60,210,56,55,44,290,50*4E
$GPGGA,032019.00,5600.4371,N,09250.6314,E,1,11,1.6,00113.8,M,,,,*36
$GPRMC,032019.00,A,5600.4371,N,09250.6314,E,0000.0,128.5,070616,000.0,E*65

$GPGSV,3,1,11,65,40,273,51,27,30,145,52,64,77,345,51,16,75,101,56*7D
$GPGSV,3,2,11,72,14,010,51,07,23,279,43,54,32,222,37,09,57,273,56*78
$GPGSV,3,3,11,56,12,343,40,23,60,210,56,55,44,290,49*48
$GPGGA,032020.00,5600.4370,N,09250.6314,E,1,11,1.6,00113.8,M,,,,*3D
$GPRMC,032020.00,A,5600.4370,N,09250.6314,E,0000.0,164.1,070616,000.0,E*62

$GPGSV,3,1,10,65,40,273,51,27,30,145,52,64,77,345,51,16,75,101,56*7C
$GPGSV,3,2,10,72,14,010,51,07,23,279,43,09,57,273,56,56,12,343,39*71
$GPGSV,3,3,10,23,60,210,56,55,44,290,49*79
$GPGGA,032021.00,5600.4377,N,09250.6316,E,1,10,1.9,00114.5,M,,,,*3D
$GPRMC,032021.00,A,5600.4377,N,09250.6316,E,0000.0,108.2,070616,000.0,E*6F

$GPGSV,3,1,10,65,40,273,51,27,30,145,52,64,77,345,51,16,75,101,56*7C
$GPGSV,3,2,10,72,14,010,50,07,23,279,43,09,57,273,56,56,12,343,40*7E
$GPGSV,3,3,10,23,60,210,56,55,44,290,48*78
$GPGGA,032022.00,5600.4377,N,09250.6316,E,1,10,1.9,00114.4,M,,,,*3F
$GPRMC,032022.00,A,5600.4377,N,09250.6316,E,0000.0,125.1,070616,000.0,E*60

$GPGSV,3,1,10,65,40,273,51,27,30,145,52,64,77,346,51,16,75,101,56*7F
$GPGSV,3,2,10,72,14,010,49,07,23,279,43,09,57,273,56,56,12,343,39*78
$GPGSV,3,3,10,23,60,210,56,55,44,290,48*78
$GPGGA,032023.00,5600.4377,N,09250.6316,E,1,10,1.9,00114.3,M,,,,*39
$GPRMC,032023.00,A,5600.4377,N,09250.6316,E,0000.0,143.6,070616,000.0,E*66

$GPGSV,3,1,10,65,40,273,51,27,30,145,52,64,77,346,51,16,75,101,56*7F
$GPGSV,3,2,10,72,14,010,49,07,23,279,43,09,57,273,56,56,12,343,40*76
$GPGSV,3,3,10,23,60,210,56,55,44,290,48*78
$GPGGA,032024.00,5600.4377,N,09250.6316,E,1,10,1.9,00114.3,M,,,,*3E
$GPRMC,032024.00,A,5600.4377,N,09250.6316,E,0000.0,136.1,070616,000.0,E*64

$GPGSV,3,1,10,65,40,273,51,27,30,145,52,64,77,346,51,16,75,101,56*7F
$GPGSV,3,2,10,72,14,010,48,07,23,279,43,09,57,273,56,56,12,343,40*77
$GPGSV,3,3,10,23,60,210,56,55,44,290,48*78
$GPGGA,032025.00,5600.4377,N,09250.6316,E,1,10,1.9,00114.2,M,,,,*3E
$GPRMC,032025.00,A,5600.4377,N,09250.6316,E,0000.0,094.4,070616,000.0,E*69

$GPGSV,3,1,10,65,40,273,51,27,30,145,52,64,77,346,51,16,75,101,56*7F
$GPGSV,3,2,10,72,14,010,48,07,23,279,43,09,57,273,56,56,12,343,41*76
$GPGSV,3,3,10,23,60,210,56,55,44,290,47*77
$GPGGA,032026.00,5600.4377,N,09250.6316,E,1,10,1.9,00114.2,M,,,,*3D
$GPRMC,032026.00,A,5600.4377,N,09250.6316,E,0000.0,090.5,070616,000.0,E*6F
